{
  "points": [
    { "lat": 23.35, "lng": 85.33, "value": 230, "city": "Ranchi", "severity": "High" },
    { "lat": 22.8, "lng": 86.18, "value": 180, "city": "Jamshedpur", "severity": "High" },
    { "lat": 23.79, "lng": 86.43, "value": 160, "city": "Dhanbad", "severity": "High" },
    { "lat": 23.99, "lng": 85.34, "value": 140, "city": "Hazaribagh", "severity": "Medium" },
    { "lat": 23.67, "lng": 86.15, "value": 125, "city": "Bokaro", "severity": "Medium" },
    { "lat": 24.47, "lng": 86.69, "value": 115, "city": "Deoghar", "severity": "Medium" },
    { "lat": 24.47, "lng": 85.58, "value": 95, "city": "Koderma", "severity": "Low" },
    { "lat": 24.18, "lng": 86.29, "value": 85, "city": "Giridih", "severity": "Low" },
    { "lat": 24.17, "lng": 83.82, "value": 75, "city": "Garhwa", "severity": "Low" },
    { "lat": 23.03, "lng": 84.53, "value": 65, "city": "Gumla", "severity": "Low" },
    { "lat": 24.02, "lng": 84.17, "value": 90, "city": "Medininagar", "severity": "Low" },
    { "lat": 22.52, "lng": 85.81, "value": 105, "city": "Chaibasa", "severity": "Medium" },
    { "lat": 22.62, "lng": 84.53, "value": 70, "city": "Simdega", "severity": "Low" },
    { "lat": 24.27, "lng": 87.28, "value": 120, "city": "Dumka", "severity": "Medium" },
    { "lat": 23.67, "lng": 86.17, "value": 80, "city": "Phusro", "severity": "Low" },
    { "lat": 22.8, "lng": 86.13, "value": 110, "city": "Adityapur", "severity": "Medium" }
  ],
  "scrollpoints": [
    {
      "id": "sp-overview",
      "title": "Jharkhand — Overall Complaint Distribution",
      "center": [23.6, 85.3],
      "zoom": 7,
      "bbox": [
        [22.0, 83.0],
        [25.5, 88.0]
      ]
    },
    {
      "id": "sp-high",
      "title": "High-Priority Complaints — Critical Zones",
      "center": [23.35, 85.33],
      "zoom": 10,
      "bbox": [
        [23.0, 85.0],
        [23.7, 85.7]
      ]
    },
    {
      "id": "sp-medium",
      "title": "Medium-Priority Complaints — Emerging Clusters",
      "center": [23.8, 86.25],
      "zoom": 9,
      "bbox": [
        [23.4, 85.9],
        [24.2, 86.6]
      ]
    },
    {
      "id": "sp-low",
      "title": "Low-Priority Complaints — Scattered Regions",
      "center": [24.1, 84.0],
      "zoom": 8,
      "bbox": [
        [23.5, 83.5],
        [24.5, 84.5]
      ]
    }
  ]
}